$GPGGA,090000.00,0616.11372293,N,07535.41060137,W,1,05,2.87,160.00,M,-21.3213,M,,*68
$GPGGA,090000.05,0616.11372293,N,07535.41060137,W,1,05,2.87,160.00,M,-21.3213,M,,*6D
$GPGGA,090000.10,0616.11372293,N,07535.41060137,W,1,05,2.87,160.00,M,-21.3213,M,,*69
$GPGGA,090000.15,0616.11372293,N,07535.41060137,W,1,05,2.87,160.00,M,-21.3213,M,,*6C
$GPGGA,090000.20,0616.11372293,N,07535.41060137,W,1,05,2.87,160.00,M,-21.3213,M,,*6A
$GPGGA,090000.25,0616.11372293,N,07535.41060137,W,1,05,2.87,160.00,M,-21.3213,M,,*6F
$GPGGA,090000.30,0616.11372293,N,07535.41060137,W,1,05,2.87,160.00,M,-21.3213,M,,*6B
$GPGGA,090000.35,0616.11372293,N,07535.41060137,W,1,05,2.87,160.00,M,-21.3213,M,,*6E
$GPGGA,090000.40,0616.11372293,N,07535.41060137,W,1,05,2.87,160.00,M,-21.3213,M,,*6C
$GPGGA,090000.45,0616.11372293,N,07535.41060137,W,1,05,2.87,160.00,M,-21.3213,M,,*69
$GPGGA,090000.50,0616.11372293,N,07535.41060137,W,1,05,2.87,160.00,M,-21.3213,M,,*6D
$GPGGA,090000.55,0616.11372293,N,07535.41060137,W,1,05,2.87,160.00,M,-21.3213,M,,*68
$GPGGA,090000.60,0616.11372293,N,07535.41060137,W,1,05,2.87,160.00,M,-21.3213,M,,*6E
$GPGGA,090000.65,0616.11372293,N,07535.41060137,W,1,05,2.87,160.00,M,-21.3213,M,,*6B
$GPGGA,090000.70,0616.11372293,N,07535.41060137,W,1,05,2.87,160.00,M,-21.3213,M,,*6F
$GPGGA,090000.75,0616.11372293,N,07535.41060137,W,1,05,2.87,160.00,M,-21.3213,M,,*6A
$GPGGA,090000.80,0616.11372293,N,07535.41060137,W,1,05,2.87,160.00,M,-21.3213,M,,*60
$GPGGA,090000.85,0616.11372293,N,07535.41060137,W,1,05,2.87,160.00,M,-21.3213,M,,*65
$GPGGA,090000.90,0616.11372293,N,07535.41060137,W,1,05,2.87,160.00,M,-21.3213,M,,*61
$GPGGA,090000.95,0616.11372293,N,07535.41060137,W,1,05,2.87,160.00,M,-21.3213,M,,*64
$GPGGA,090001.00,0616.11372293,N,07535.41060137,W,1,05,2.87,160.00,M,-21.3213,M,,*69
$GPGGA,090001.05,0616.11372293,N,07535.41060137,W,1,05,2.87,160.00,M,-21.3213,M,,*6C
$GPGGA,090001.10,0616.11372293,N,07535.41060137,W,1,05,2.87,160.00,M,-21.3213,M,,*68
$GPGGA,090001.15,0616.11372293,N,07535.41060137,W,1,05,2.87,160.00,M,-21.3213,M,,*6D
$GPGGA,090001.20,0616.11372293,N,07535.41060137,W,1,05,2.87,160.00,M,-21.3213,M,,*6B
$GPGGA,090001.25,0616.11372293,N,07535.41060137,W,1,05,2.87,160.00,M,-21.3213,M,,*6E
$GPGGA,090001.30,0616.11372293,N,07535.41060137,W,1,05,2.87,160.00,M,-21.3213,M,,*6A
$GPGGA,090001.35,0616.11372293,N,07535.41060137,W,1,05,2.87,160.00,M,-21.3213,M,,*6F
$GPGGA,090001.40,0616.11372293,N,07535.41060137,W,1,05,2.87,160.00,M,-21.3213,M,,*6D
$GPGGA,090001.45,0616.11372293,N,07535.41060137,W,1,05,2.87,160.00,M,-21.3213,M,,*68
$GPGGA,090001.50,0616.11372293,N,07535.41060137,W,1,05,2.87,160.00,M,-21.3213,M,,*6C
$GPGGA,090001.55,0616.11372293,N,07535.41060137,W,1,05,2.87,160.00,M,-21.3213,M,,*69
$GPGGA,090001.60,0616.11372293,N,07535.41060137,W,1,05,2.87,160.00,M,-21.3213,M,,*6F
$GPGGA,090001.65,0616.11372293,N,07535.41060137,W,1,05,2.87,160.00,M,-21.3213,M,,*6A
$GPGGA,090001.70,0616.11372293,N,07535.41060137,W,1,05,2.87,160.00,M,-21.3213,M,,*6E
$GPGGA,090001.75,0616.11372293,N,07535.41060137,W,1,05,2.87,160.00,M,-21.3213,M,,*6B
$GPGGA,090001.80,0616.11372293,N,07535.41060137,W,1,05,2.87,160.00,M,-21.3213,M,,*61
$GPGGA,090001.85,0616.11372293,N,07535.41060137,W,1,05,2.87,160.00,M,-21.3213,M,,*64
$GPGGA,090001.90,0616.11372293,N,07535.41060137,W,1,05,2.87,160.00,M,-21.3213,M,,*60
$GPGGA,090001.95,0616.11372293,N,07535.41060137,W,1,05,2.87,160.00,M,-21.3213,M,,*65
$GPGGA,090002.00,0616.11372293,N,07535.41060137,W,1,05,2.87,160.00,M,-21.3213,M,,*6A
$GPGGA,090002.05,0616.11372293,N,07535.41060137,W,1,05,2.87,160.00,M,-21.3213,M,,*6F
$GPGGA,090002.10,0616.11372293,N,07535.41060137,W,1,05,2.87,160.00,M,-21.3213,M,,*6B
$GPGGA,090002.15,0616.11372293,N,07535.41060137,W,1,05,2.87,160.00,M,-21.3213,M,,*6E
$GPGGA,090002.20,0616.11372293,N,07535.41060137,W,1,05,2.87,160.00,M,-21.3213,M,,*68
$GPGGA,090002.25,0616.11372293,N,07535.41060137,W,1,05,2.87,160.00,M,-21.3213,M,,*6D
$GPGGA,090002.30,0616.11372293,N,07535.41060137,W,1,05,2.87,160.00,M,-21.3213,M,,*69
$GPGGA,090002.35,0616.11372293,N,07535.41060137,W,1,05,2.87,160.00,M,-21.3213,M,,*6C
$GPGGA,090002.40,0616.11372293,N,07535.41060137,W,1,05,2.87,160.00,M,-21.3213,M,,*6E
$GPGGA,090002.45,0616.11372293,N,07535.41060137,W,1,05,2.87,160.00,M,-21.3213,M,,*6B
$GPGGA,090002.50,0616.11372293,N,07535.41060137,W,1,05,2.87,160.00,M,-21.3213,M,,*6F
$GPGGA,090002.55,0616.11372293,N,07535.41060137,W,1,05,2.87,160.00,M,-21.3213,M,,*6A
$GPGGA,090002.60,0616.11372293,N,07535.41060137,W,1,05,2.87,160.00,M,-21.3213,M,,*6C
$GPGGA,090002.65,0616.11372293,N,07535.41060137,W,1,05,2.87,160.00,M,-21.3213,M,,*69
$GPGGA,090002.70,0616.11372293,N,07535.41060137,W,1,05,2.87,160.00,M,-21.3213,M,,*6D
$GPGGA,090002.75,0616.11372293,N,07535.41060137,W,1,05,2.87,160.00,M,-21.3213,M,,*68
$GPGGA,090002.80,0616.11372293,N,07535.41060137,W,1,05,2.87,160.00,M,-21.3213,M,,*62
$GPGGA,090002.85,0616.11372293,N,07535.41060137,W,1,05,2.87,160.00,M,-21.3213,M,,*67
$GPGGA,090002.90,0616.11372293,N,07535.41060137,W,1,05,2.87,160.00,M,-21.3213,M,,*63
$GPGGA,090002.95,0616.11372293,N,07535.41060137,W,1,05,2.87,160.00,M,-21.3213,M,,*66
$GPGGA,090003.00,0616.11372293,N,07535.41060137,W,1,05,2.87,160.00,M,-21.3213,M,,*6B
$GPGGA,090003.05,0616.11372293,N,07535.41060137,W,1,05,2.87,160.00,M,-21.3213,M,,*6E
$GPGGA,090003.10,0616.11372293,N,07535.41060137,W,1,05,2.87,160.00,M,-21.3213,M,,*6A
$GPGGA,090003.15,0616.11372293,N,07535.41060137,W,1,05,2.87,160.00,M,-21.3213,M,,*6F
$GPGGA,090003.20,0616.11372293,N,07535.41060137,W,1,05,2.87,160.00,M,-21.3213,M,,*69
$GPGGA,090003.25,0616.11372293,N,07535.41060137,W,1,05,2.87,160.00,M,-21.3213,M,,*6C
$GPGGA,090003.30,0616.11372293,N,07535.41060137,W,1,05,2.87,160.00,M,-21.3213,M,,*68
$GPGGA,090003.35,0616.11372293,N,07535.41060137,W,1,05,2.87,160.00,M,-21.3213,M,,*6D
$GPGGA,090003.40,0616.11372293,N,07535.41060137,W,1,05,2.87,160.00,M,-21.3213,M,,*6F
$GPGGA,090003.45,0616.11372293,N,07535.41060137,W,1,05,2.87,160.00,M,-21.3213,M,,*6A
$GPGGA,090003.50,0616.11372293,N,07535.41060137,W,1,05,2.87,160.00,M,-21.3213,M,,*6E
$GPGGA,090003.55,0616.11372293,N,07535.41060137,W,1,05,2.87,160.00,M,-21.3213,M,,*6B
$GPGGA,090003.60,0616.11372293,N,07535.41060137,W,1,05,2.87,160.00,M,-21.3213,M,,*6D
$GPGGA,090003.65,0616.11372293,N,07535.41060137,W,1,05,2.87,160.00,M,-21.3213,M,,*68
$GPGGA,090003.70,0616.11372293,N,07535.41060137,W,1,05,2.87,160.00,M,-21.3213,M,,*6C
$GPGGA,090003.75,0616.11372293,N,07535.41060137,W,1,05,2.87,160.00,M,-21.3213,M,,*69
$GPGGA,090003.80,0616.11372293,N,07535.41060137,W,1,05,2.87,160.00,M,-21.3213,M,,*63
$GPGGA,090003.85,0616.11372293,N,07535.41060137,W,1,05,2.87,160.00,M,-21.3213,M,,*66
$GPGGA,090003.90,0616.11372293,N,07535.41060137,W,1,05,2.87,160.00,M,-21.3213,M,,*62
$GPGGA,090003.95,0616.11372293,N,07535.41060137,W,1,05,2.87,160.00,M,-21.3213,M,,*67
$GPGGA,090004.00,0616.11372293,N,07535.41060137,W,1,05,2.87,160.00,M,-21.3213,M,,*6C
$GPGGA,090004.05,0616.11372293,N,07535.41060137,W,1,05,2.87,160.00,M,-21.3213,M,,*69
$GPGGA,090004.10,0616.11372293,N,07535.41060137,W,1,05,2.87,160.00,M,-21.3213,M,,*6D
$GPGGA,090004.15,0616.11372293,N,07535.41060137,W,1,05,2.87,160.00,M,-21.3213,M,,*68
$GPGGA,090004.20,0616.11372293,N,07535.41060137,W,1,05,2.87,160.00,M,-21.3213,M,,*6E
$GPGGA,090004.25,0616.11372293,N,07535.41060137,W,1,05,2.87,160.00,M,-21.3213,M,,*6B
$GPGGA,090004.30,0616.11372293,N,07535.41060137,W,1,05,2.87,160.00,M,-21.3213,M,,*6F
$GPGGA,090004.35,0616.11372293,N,07535.41060137,W,1,05,2.87,160.00,M,-21.3213,M,,*6A
$GPGGA,090004.40,0616.11372293,N,07535.41060137,W,1,05,2.87,160.00,M,-21.3213,M,,*68
$GPGGA,090004.45,0616.11372293,N,07535.41060137,W,1,05,2.87,160.00,M,-21.3213,M,,*6D
$GPGGA,090004.50,0616.11372293,N,07535.41060137,W,1,05,2.87,160.00,M,-21.3213,M,,*69
$GPGGA,090004.55,0616.11372293,N,07535.41060137,W,1,05,2.87,160.00,M,-21.3213,M,,*6C
$GPGGA,090004.60,0616.11372293,N,07535.41060137,W,1,05,2.87,160.00,M,-21.3213,M,,*6A
$GPGGA,090004.65,0616.11372293,N,07535.41060137,W,1,05,2.87,160.00,M,-21.3213,M,,*6F
$GPGGA,090004.70,0616.11372293,N,07535.41060137,W,1,05,2.87,160.00,M,-21.3213,M,,*6B
$GPGGA,090004.75,0616.11372293,N,07535.41060137,W,1,05,2.87,160.00,M,-21.3213,M,,*6E
$GPGGA,090004.80,0616.11372293,N,07535.41060137,W,1,05,2.87,160.00,M,-21.3213,M,,*64
$GPGGA,090004.85,0616.11372293,N,07535.41060137,W,1,05,2.87,160.00,M,-21.3213,M,,*61
$GPGGA,090004.90,0616.11372293,N,07535.41060137,W,1,05,2.87,160.00,M,-21.3213,M,,*65
$GPGGA,090004.95,0616.11372293,N,07535.41060137,W,1,05,2.87,160.00,M,-21.3213,M,,*60
$GPGGA,090005.00,0616.11372293,N,07535.41060137,W,1,05,2.87,160.00,M,-21.3213,M,,*6D
$GPGGA,090005.05,0616.11372293,N,07535.41060137,W,1,05,2.87,160.00,M,-21.3213,M,,*68
$GPGGA,090005.10,0616.11372293,N,07535.41060137,W,1,05,2.87,160.00,M,-21.3213,M,,*6C
$GPGGA,090005.15,0616.11372293,N,07535.41060137,W,1,05,2.87,160.00,M,-21.3213,M,,*69
$GPGGA,090005.20,0616.11372293,N,07535.41060137,W,1,05,2.87,160.00,M,-21.3213,M,,*6F
$GPGGA,090005.25,0616.11372293,N,07535.41060137,W,1,05,2.87,160.00,M,-21.3213,M,,*6A
$GPGGA,090005.30,0616.11372293,N,07535.41060137,W,1,05,2.87,160.00,M,-21.3213,M,,*6E
$GPGGA,090005.35,0616.11372293,N,07535.41060137,W,1,05,2.87,160.00,M,-21.3213,M,,*6B
$GPGGA,090005.40,0616.11372293,N,07535.41060137,W,1,05,2.87,160.00,M,-21.3213,M,,*69
$GPGGA,090005.45,0616.11372293,N,07535.41060137,W,1,05,2.87,160.00,M,-21.3213,M,,*6C
$GPGGA,090005.50,0616.11372293,N,07535.41060137,W,1,05,2.87,160.00,M,-21.3213,M,,*68
$GPGGA,090005.55,0616.11372293,N,07535.41060137,W,1,05,2.87,160.00,M,-21.3213,M,,*6D
$GPGGA,090005.60,0616.11372293,N,07535.41060137,W,1,05,2.87,160.00,M,-21.3213,M,,*6B
$GPGGA,090005.65,0616.11372293,N,07535.41060137,W,1,05,2.87,160.00,M,-21.3213,M,,*6E
$GPGGA,090005.70,0616.11372293,N,07535.41060137,W,1,05,2.87,160.00,M,-21.3213,M,,*6A
$GPGGA,090005.75,0616.11372293,N,07535.41060137,W,1,05,2.87,160.00,M,-21.3213,M,,*6F
$GPGGA,090005.80,0616.11372293,N,07535.41060137,W,1,05,2.87,160.00,M,-21.3213,M,,*65
$GPGGA,090005.85,0616.11372293,N,07535.41060137,W,1,05,2.87,160.00,M,-21.3213,M,,*60
$GPGGA,090005.90,0616.11372293,N,07535.41060137,W,1,05,2.87,160.00,M,-21.3213,M,,*64
$GPGGA,090005.95,0616.11372293,N,07535.41060137,W,1,05,2.87,160.00,M,-21.3213,M,,*61
$GPGGA,090006.00,0616.11372293,N,07535.41060137,W,1,05,2.87,160.00,M,-21.3213,M,,*6E
$GPGGA,090006.05,0616.11372293,N,07535.41060137,W,1,05,2.87,160.00,M,-21.3213,M,,*6B
$GPGGA,090006.10,0616.11372293,N,07535.41060137,W,1,05,2.87,160.00,M,-21.3213,M,,*6F
$GPGGA,090006.15,0616.11372293,N,07535.41060137,W,1,05,2.87,160.00,M,-21.3213,M,,*6A
$GPGGA,090006.20,0616.11372293,N,07535.41060137,W,1,05,2.87,160.00,M,-21.3213,M,,*6C
$GPGGA,090006.25,0616.11372293,N,07535.41060137,W,1,05,2.87,160.00,M,-21.3213,M,,*69
$GPGGA,090006.30,0616.11372293,N,07535.41060137,W,1,05,2.87,160.00,M,-21.3213,M,,*6D
$GPGGA,090006.35,0616.11372293,N,07535.41060137,W,1,05,2.87,160.00,M,-21.3213,M,,*68
$GPGGA,090006.40,0616.11372293,N,07535.41060137,W,1,05,2.87,160.00,M,-21.3213,M,,*6A
$GPGGA,090006.45,0616.11372293,N,07535.41060137,W,1,05,2.87,160.00,M,-21.3213,M,,*6F
$GPGGA,090006.50,0616.11372293,N,07535.41060137,W,1,05,2.87,160.00,M,-21.3213,M,,*6B
$GPGGA,090006.55,0616.11372293,N,07535.41060137,W,1,05,2.87,160.00,M,-21.3213,M,,*6E
$GPGGA,090006.60,0616.11372293,N,07535.41060137,W,1,05,2.87,160.00,M,-21.3213,M,,*68
$GPGGA,090006.65,0616.11372293,N,07535.41060137,W,1,05,2.87,160.00,M,-21.3213,M,,*6D
$GPGGA,090006.70,0616.11372293,N,07535.41060137,W,1,05,2.87,160.00,M,-21.3213,M,,*69
$GPGGA,090006.75,0616.11372293,N,07535.41060137,W,1,05,2.87,160.00,M,-21.3213,M,,*6C
$GPGGA,090006.80,0616.11372293,N,07535.41060137,W,1,05,2.87,160.00,M,-21.3213,M,,*66
$GPGGA,090006.85,0616.11372293,N,07535.41060137,W,1,05,2.87,160.00,M,-21.3213,M,,*63
$GPGGA,090006.90,0616.11372293,N,07535.41060137,W,1,05,2.87,160.00,M,-21.3213,M,,*67
$GPGGA,090006.95,0616.11372293,N,07535.41060137,W,1,05,2.87,160.00,M,-21.3213,M,,*62
$GPGGA,090007.00,0616.11372293,N,07535.41060137,W,1,05,2.87,160.00,M,-21.3213,M,,*6F
$GPGGA,090007.05,0616.11372293,N,07535.41060137,W,1,05,2.87,160.00,M,-21.3213,M,,*6A
$GPGGA,090007.10,0616.11372293,N,07535.41060137,W,1,05,2.87,160.00,M,-21.3213,M,,*6E
$GPGGA,090007.15,0616.11372293,N,07535.41060137,W,1,05,2.87,160.00,M,-21.3213,M,,*6B
$GPGGA,090007.20,0616.11372293,N,07535.41060137,W,1,05,2.87,160.00,M,-21.3213,M,,*6D
$GPGGA,090007.25,0616.11372293,N,07535.41060137,W,1,05,2.87,160.00,M,-21.3213,M,,*68
$GPGGA,090007.30,0616.11372293,N,07535.41060137,W,1,05,2.87,160.00,M,-21.3213,M,,*6C
$GPGGA,090007.35,0616.11372293,N,07535.41060137,W,1,05,2.87,160.00,M,-21.3213,M,,*69
$GPGGA,090007.40,0616.11372293,N,07535.41060137,W,1,05,2.87,160.00,M,-21.3213,M,,*6B
$GPGGA,090007.45,0616.11372293,N,07535.41060137,W,1,05,2.87,160.00,M,-21.3213,M,,*6E
$GPGGA,090007.50,0616.11372293,N,07535.41060137,W,1,05,2.87,160.00,M,-21.3213,M,,*6A
$GPGGA,090007.55,0616.11372293,N,07535.41060137,W,1,05,2.87,160.00,M,-21.3213,M,,*6F
$GPGGA,090007.60,0616.11372293,N,07535.41060137,W,1,05,2.87,160.00,M,-21.3213,M,,*69
$GPGGA,090007.65,0616.11372293,N,07535.41060137,W,1,05,2.87,160.00,M,-21.3213,M,,*6C
$GPGGA,090007.70,0616.11372293,N,07535.41060137,W,1,05,2.87,160.00,M,-21.3213,M,,*68
$GPGGA,090007.75,0616.11372293,N,07535.41060137,W,1,05,2.87,160.00,M,-21.3213,M,,*6D
$GPGGA,090007.80,0616.11372293,N,07535.41060137,W,1,05,2.87,160.00,M,-21.3213,M,,*67
$GPGGA,090007.85,0616.11372293,N,07535.41060137,W,1,05,2.87,160.00,M,-21.3213,M,,*62
$GPGGA,090007.90,0616.11372293,N,07535.41060137,W,1,05,2.87,160.00,M,-21.3213,M,,*66
$GPGGA,090007.95,0616.11372293,N,07535.41060137,W,1,05,2.87,160.00,M,-21.3213,M,,*63
$GPGGA,090008.00,0616.11372293,N,07535.41060137,W,1,05,2.87,160.00,M,-21.3213,M,,*60
$GPGGA,090008.05,0616.11372293,N,07535.41060137,W,1,05,2.87,160.00,M,-21.3213,M,,*65
$GPGGA,090008.10,0616.11372293,N,07535.41060137,W,1,05,2.87,160.00,M,-21.3213,M,,*61
$GPGGA,090008.15,0616.11372293,N,07535.41060137,W,1,05,2.87,160.00,M,-21.3213,M,,*64
$GPGGA,090008.20,0616.11372293,N,07535.41060137,W,1,05,2.87,160.00,M,-21.3213,M,,*62
$GPGGA,090008.25,0616.11372293,N,07535.41060137,W,1,05,2.87,160.00,M,-21.3213,M,,*67
$GPGGA,090008.30,0616.11372293,N,07535.41060137,W,1,05,2.87,160.00,M,-21.3213,M,,*63
$GPGGA,090008.35,0616.11372293,N,07535.41060137,W,1,05,2.87,160.00,M,-21.3213,M,,*66
$GPGGA,090008.40,0616.11372293,N,07535.41060137,W,1,05,2.87,160.00,M,-21.3213,M,,*64
$GPGGA,090008.45,0616.11372293,N,07535.41060137,W,1,05,2.87,160.00,M,-21.3213,M,,*61
$GPGGA,090008.50,0616.11372293,N,07535.41060137,W,1,05,2.87,160.00,M,-21.3213,M,,*65
$GPGGA,090008.55,0616.11372293,N,07535.41060137,W,1,05,2.87,160.00,M,-21.3213,M,,*60
$GPGGA,090008.60,0616.11372293,N,07535.41060137,W,1,05,2.87,160.00,M,-21.3213,M,,*66
$GPGGA,090008.65,0616.11372293,N,07535.41060137,W,1,05,2.87,160.00,M,-21.3213,M,,*63
$GPGGA,090008.70,0616.11372293,N,07535.41060137,W,1,05,2.87,160.00,M,-21.3213,M,,*67
$GPGGA,090008.75,0616.11372293,N,07535.41060137,W,1,05,2.87,160.00,M,-21.3213,M,,*62
$GPGGA,090008.80,0616.11372293,N,07535.41060137,W,1,05,2.87,160.00,M,-21.3213,M,,*68
$GPGGA,090008.85,0616.11372293,N,07535.41060137,W,1,05,2.87,160.00,M,-21.3213,M,,*6D
$GPGGA,090008.90,0616.11372293,N,07535.41060137,W,1,05,2.87,160.00,M,-21.3213,M,,*69
$GPGGA,090008.95,0616.11372293,N,07535.41060137,W,1,05,2.87,160.00,M,-21.3213,M,,*6C
$GPGGA,090009.00,0616.11372293,N,07535.41060137,W,1,05,2.87,160.00,M,-21.3213,M,,*61
$GPGGA,090009.05,0616.11372293,N,07535.41060137,W,1,05,2.87,160.00,M,-21.3213,M,,*64
$GPGGA,090009.10,0616.11372293,N,07535.41060137,W,1,05,2.87,160.00,M,-21.3213,M,,*60
$GPGGA,090009.15,0616.11372293,N,07535.41060137,W,1,05,2.87,160.00,M,-21.3213,M,,*65
$GPGGA,090009.20,0616.11372293,N,07535.41060137,W,1,05,2.87,160.00,M,-21.3213,M,,*63
$GPGGA,090009.25,0616.11372293,N,07535.41060137,W,1,05,2.87,160.00,M,-21.3213,M,,*66
$GPGGA,090009.30,0616.11372293,N,07535.41060137,W,1,05,2.87,160.00,M,-21.3213,M,,*62
$GPGGA,090009.35,0616.11372293,N,07535.41060137,W,1,05,2.87,160.00,M,-21.3213,M,,*67
$GPGGA,090009.40,0616.11372293,N,07535.41060137,W,1,05,2.87,160.00,M,-21.3213,M,,*65
$GPGGA,090009.45,0616.11372293,N,07535.41060137,W,1,05,2.87,160.00,M,-21.3213,M,,*60
$GPGGA,090009.50,0616.11372293,N,07535.41060137,W,1,05,2.87,160.00,M,-21.3213,M,,*64
$GPGGA,090009.55,0616.11372293,N,07535.41060137,W,1,05,2.87,160.00,M,-21.3213,M,,*61
$GPGGA,090009.60,0616.11372293,N,07535.41060137,W,1,05,2.87,160.00,M,-21.3213,M,,*67
$GPGGA,090009.65,0616.11372293,N,07535.41060137,W,1,05,2.87,160.00,M,-21.3213,M,,*62
$GPGGA,090009.70,0616.11372293,N,07535.41060137,W,1,05,2.87,160.00,M,-21.3213,M,,*66
$GPGGA,090009.75,0616.11372293,N,07535.41060137,W,1,05,2.87,160.00,M,-21.3213,M,,*63
$GPGGA,090009.80,0616.11372293,N,07535.41060137,W,1,05,2.87,160.00,M,-21.3213,M,,*69
$GPGGA,090009.85,0616.11372293,N,07535.41060137,W,1,05,2.87,160.00,M,-21.3213,M,,*6C
$GPGGA,090009.90,0616.11372293,N,07535.41060137,W,1,05,2.87,160.00,M,-21.3213,M,,*68
$GPGGA,090009.95,0616.11372293,N,07535.41060137,W,1,05,2.87,160.00,M,-21.3213,M,,*6D
$GPGGA,090010.00,0616.11372293,N,07535.41060137,W,1,05,2.87,160.00,M,-21.3213,M,,*69
$GPGGA,090010.05,0616.11372293,N,07535.41060137,W,1,05,2.87,160.00,M,-21.3213,M,,*6C
$GPGGA,090010.10,0616.11372293,N,07535.41060137,W,1,05,2.87,160.00,M,-21.3213,M,,*68
$GPGGA,090010.15,0616.11372293,N,07535.41060137,W,1,05,2.87,160.00,M,-21.3213,M,,*6D
$GPGGA,090010.20,0616.11372293,N,07535.41060137,W,1,05,2.87,160.00,M,-21.3213,M,,*6B
$GPGGA,090010.25,0616.11372293,N,07535.41060137,W,1,05,2.87,160.00,M,-21.3213,M,,*6E
$GPGGA,090010.30,0616.11372293,N,07535.41060137,W,1,05,2.87,160.00,M,-21.3213,M,,*6A
$GPGGA,090010.35,0616.11372293,N,07535.41060137,W,1,05,2.87,160.00,M,-21.3213,M,,*6F
$GPGGA,090010.40,0616.11372293,N,07535.41060137,W,1,05,2.87,160.00,M,-21.3213,M,,*6D
$GPGGA,090010.45,0616.11372293,N,07535.41060137,W,1,05,2.87,160.00,M,-21.3213,M,,*68
$GPGGA,090010.50,0616.11372293,N,07535.41060137,W,1,05,2.87,160.00,M,-21.3213,M,,*6C
$GPGGA,090010.55,0616.11372293,N,07535.41060137,W,1,05,2.87,160.00,M,-21.3213,M,,*69
$GPGGA,090010.60,0616.11372293,N,07535.41060137,W,1,05,2.87,160.00,M,-21.3213,M,,*6F
$GPGGA,090010.65,0616.11372293,N,07535.41060137,W,1,05,2.87,160.00,M,-21.3213,M,,*6A
$GPGGA,090010.70,0616.11372293,N,07535.41060137,W,1,05,2.87,160.00,M,-21.3213,M,,*6E
$GPGGA,090010.75,0616.11372293,N,07535.41060137,W,1,05,2.87,160.00,M,-21.3213,M,,*6B
$GPGGA,090010.80,0616.11372293,N,07535.41060137,W,1,05,2.87,160.00,M,-21.3213,M,,*61
$GPGGA,090010.85,0616.11372293,N,07535.41060137,W,1,05,2.87,160.00,M,-21.3213,M,,*64
$GPGGA,090010.90,0616.11372293,N,07535.41060137,W,1,05,2.87,160.00,M,-21.3213,M,,*60
$GPGGA,090010.95,0616.11372293,N,07535.41060137,W,1,05,2.87,160.00,M,-21.3213,M,,*65
$GPGGA,090011.00,0616.11372293,N,07535.41060137,W,1,05,2.87,160.00,M,-21.3213,M,,*68
$GPGGA,090011.05,0616.11372293,N,07535.41060137,W,1,05,2.87,160.00,M,-21.3213,M,,*6D
$GPGGA,090011.10,0616.11372293,N,07535.41060137,W,1,05,2.87,160.00,M,-21.3213,M,,*69
$GPGGA,090011.15,0616.11372293,N,07535.41060137,W,1,05,2.87,160.00,M,-21.3213,M,,*6C
$GPGGA,090011.20,0616.11372293,N,07535.41060137,W,1,05,2.87,160.00,M,-21.3213,M,,*6A
$GPGGA,090011.25,0616.11372293,N,07535.41060137,W,1,05,2.87,160.00,M,-21.3213,M,,*6F
$GPGGA,090011.30,0616.11372293,N,07535.41060137,W,1,05,2.87,160.00,M,-21.3213,M,,*6B
$GPGGA,090011.35,0616.11372293,N,07535.41060137,W,1,05,2.87,160.00,M,-21.3213,M,,*6E
$GPGGA,090011.40,0616.11372293,N,07535.41060137,W,1,05,2.87,160.00,M,-21.3213,M,,*6C
$GPGGA,090011.45,0616.11372293,N,07535.41060137,W,1,05,2.87,160.00,M,-21.3213,M,,*69
$GPGGA,090011.50,0616.11372293,N,07535.41060137,W,1,05,2.87,160.00,M,-21.3213,M,,*6D
$GPGGA,090011.55,0616.11372293,N,07535.41060137,W,1,05,2.87,160.00,M,-21.3213,M,,*68
$GPGGA,090011.60,0616.11372293,N,07535.41060137,W,1,05,2.87,160.00,M,-21.3213,M,,*6E
$GPGGA,090011.65,0616.11372293,N,07535.41060137,W,1,05,2.87,160.00,M,-21.3213,M,,*6B
$GPGGA,090011.70,0616.11372293,N,07535.41060137,W,1,05,2.87,160.00,M,-21.3213,M,,*6F
$GPGGA,090011.75,0616.11372293,N,07535.41060137,W,1,05,2.87,160.00,M,-21.3213,M,,*6A
$GPGGA,090011.80,0616.11372293,N,07535.41060137,W,1,05,2.87,160.00,M,-21.3213,M,,*60
$GPGGA,090011.85,0616.11372293,N,07535.41060137,W,1,05,2.87,160.00,M,-21.3213,M,,*65
$GPGGA,090011.90,0616.11372293,N,07535.41060137,W,1,05,2.87,160.00,M,-21.3213,M,,*61
$GPGGA,090011.95,0616.11372293,N,07535.41060137,W,1,05,2.87,160.00,M,-21.3213,M,,*64
$GPGGA,090012.00,0616.11372293,N,07535.41060137,W,1,05,2.87,160.00,M,-21.3213,M,,*6B
$GPGGA,090012.05,0616.11372293,N,07535.41060137,W,1,05,2.87,160.00,M,-21.3213,M,,*6E
$GPGGA,090012.10,0616.11372293,N,07535.41060137,W,1,05,2.87,160.00,M,-21.3213,M,,*6A
$GPGGA,090012.15,0616.11372293,N,07535.41060137,W,1,05,2.87,160.00,M,-21.3213,M,,*6F
$GPGGA,090012.20,0616.11372293,N,07535.41060137,W,1,05,2.87,160.00,M,-21.3213,M,,*69
$GPGGA,090012.25,0616.11372293,N,07535.41060137,W,1,05,2.87,160.00,M,-21.3213,M,,*6C
$GPGGA,090012.30,0616.11372293,N,07535.41060137,W,1,05,2.87,160.00,M,-21.3213,M,,*68
$GPGGA,090012.35,0616.11372293,N,07535.41060137,W,1,05,2.87,160.00,M,-21.3213,M,,*6D
$GPGGA,090012.40,0616.11372293,N,07535.41060137,W,1,05,2.87,160.00,M,-21.3213,M,,*6F
$GPGGA,090012.45,0616.11372293,N,07535.41060137,W,1,05,2.87,160.00,M,-21.3213,M,,*6A
$GPGGA,090012.50,0616.11372293,N,07535.41060137,W,1,05,2.87,160.00,M,-21.3213,M,,*6E
$GPGGA,090012.55,0616.11372293,N,07535.41060137,W,1,05,2.87,160.00,M,-21.3213,M,,*6B
$GPGGA,090012.60,0616.11372293,N,07535.41060137,W,1,05,2.87,160.00,M,-21.3213,M,,*6D
$GPGGA,090012.65,0616.11372293,N,07535.41060137,W,1,05,2.87,160.00,M,-21.3213,M,,*68
$GPGGA,090012.70,0616.11372293,N,07535.41060137,W,1,05,2.87,160.00,M,-21.3213,M,,*6C
$GPGGA,090012.75,0616.11372293,N,07535.41060137,W,1,05,2.87,160.00,M,-21.3213,M,,*69
$GPGGA,090012.80,0616.11372293,N,07535.41060137,W,1,05,2.87,160.00,M,-21.3213,M,,*63
$GPGGA,090012.85,0616.11372293,N,07535.41060137,W,1,05,2.87,160.00,M,-21.3213,M,,*66
$GPGGA,090012.90,0616.11372293,N,07535.41060137,W,1,05,2.87,160.00,M,-21.3213,M,,*62
$GPGGA,090012.95,0616.11372293,N,07535.41060137,W,1,05,2.87,160.00,M,-21.3213,M,,*67
$GPGGA,090013.00,0616.11372293,N,07535.41060137,W,1,05,2.87,160.00,M,-21.3213,M,,*6A
$GPGGA,090013.05,0616.11372293,N,07535.41060137,W,1,05,2.87,160.00,M,-21.3213,M,,*6F
$GPGGA,090013.10,0616.11372293,N,07535.41060137,W,1,05,2.87,160.00,M,-21.3213,M,,*6B
$GPGGA,090013.15,0616.11372293,N,07535.41060137,W,1,05,2.87,160.00,M,-21.3213,M,,*6E
$GPGGA,090013.20,0616.11372293,N,07535.41060137,W,1,05,2.87,160.00,M,-21.3213,M,,*68
$GPGGA,090013.25,0616.11372293,N,07535.41060137,W,1,05,2.87,160.00,M,-21.3213,M,,*6D
$GPGGA,090013.30,0616.11372293,N,07535.41060137,W,1,05,2.87,160.00,M,-21.3213,M,,*69
$GPGGA,090013.35,0616.11372293,N,07535.41060137,W,1,05,2.87,160.00,M,-21.3213,M,,*6C
$GPGGA,090013.40,0616.11372293,N,07535.41060137,W,1,05,2.87,160.00,M,-21.3213,M,,*6E
$GPGGA,090013.45,0616.11372293,N,07535.41060137,W,1,05,2.87,160.00,M,-21.3213,M,,*6B
$GPGGA,090013.50,0616.11372293,N,07535.41060137,W,1,05,2.87,160.00,M,-21.3213,M,,*6F
$GPGGA,090013.55,0616.11372293,N,07535.41060137,W,1,05,2.87,160.00,M,-21.3213,M,,*6A
$GPGGA,090013.60,0616.11372293,N,07535.41060137,W,1,05,2.87,160.00,M,-21.3213,M,,*6C
$GPGGA,090013.65,0616.11372293,N,07535.41060137,W,1,05,2.87,160.00,M,-21.3213,M,,*69
$GPGGA,090013.70,0616.11372293,N,07535.41060137,W,1,05,2.87,160.00,M,-21.3213,M,,*6D
$GPGGA,090013.75,0616.11372293,N,07535.41060137,W,1,05,2.87,160.00,M,-21.3213,M,,*68
$GPGGA,090013.80,0616.11372293,N,07535.41060137,W,1,05,2.87,160.00,M,-21.3213,M,,*62
$GPGGA,090013.85,0616.11372293,N,07535.41060137,W,1,05,2.87,160.00,M,-21.3213,M,,*67
$GPGGA,090013.90,0616.11372293,N,07535.41060137,W,1,05,2.87,160.00,M,-21.3213,M,,*63
$GPGGA,090013.95,0616.11372293,N,07535.41060137,W,1,05,2.87,160.00,M,-21.3213,M,,*66
$GPGGA,090014.00,0616.11372293,N,07535.41060137,W,1,05,2.87,160.00,M,-21.3213,M,,*6D
$GPGGA,090014.05,0616.11372293,N,07535.41060137,W,1,05,2.87,160.00,M,-21.3213,M,,*68
$GPGGA,090014.10,0616.11372293,N,07535.41060137,W,1,05,2.87,160.00,M,-21.3213,M,,*6C
$GPGGA,090014.15,0616.11372293,N,07535.41060137,W,1,05,2.87,160.00,M,-21.3213,M,,*69
$GPGGA,090014.20,0616.11372293,N,07535.41060137,W,1,05,2.87,160.00,M,-21.3213,M,,*6F
$GPGGA,090014.25,0616.11372293,N,07535.41060137,W,1,05,2.87,160.00,M,-21.3213,M,,*6A
$GPGGA,090014.30,0616.11372293,N,07535.41060137,W,1,05,2.87,160.00,M,-21.3213,M,,*6E
$GPGGA,090014.35,0616.11372293,N,07535.41060137,W,1,05,2.87,160.00,M,-21.3213,M,,*6B
$GPGGA,090014.40,0616.11372293,N,07535.41060137,W,1,05,2.87,160.00,M,-21.3213,M,,*69
$GPGGA,090014.45,0616.11372293,N,07535.41060137,W,1,05,2.87,160.00,M,-21.3213,M,,*6C
$GPGGA,090014.50,0616.11372293,N,07535.41060137,W,1,05,2.87,160.00,M,-21.3213,M,,*68
$GPGGA,090014.55,0616.11372293,N,07535.41060137,W,1,05,2.87,160.00,M,-21.3213,M,,*6D
$GPGGA,090014.60,0616.11372293,N,07535.41060137,W,1,05,2.87,160.00,M,-21.3213,M,,*6B
$GPGGA,090014.65,0616.11372293,N,07535.41060137,W,1,05,2.87,160.00,M,-21.3213,M,,*6E
$GPGGA,090014.70,0616.11372293,N,07535.41060137,W,1,05,2.87,160.00,M,-21.3213,M,,*6A
$GPGGA,090014.75,0616.11372293,N,07535.41060137,W,1,05,2.87,160.00,M,-21.3213,M,,*6F
$GPGGA,090014.80,0616.11372293,N,07535.41060137,W,1,05,2.87,160.00,M,-21.3213,M,,*65
$GPGGA,090014.85,0616.11372293,N,07535.41060137,W,1,05,2.87,160.00,M,-21.3213,M,,*60
$GPGGA,090014.90,0616.11372293,N,07535.41060137,W,1,05,2.87,160.00,M,-21.3213,M,,*64
$GPGGA,090014.95,0616.11372293,N,07535.41060137,W,1,05,2.87,160.00,M,-21.3213,M,,*61
$GPGGA,090015.00,0616.11372293,N,07535.41060137,W,1,05,2.87,160.00,M,-21.3213,M,,*6C
$GPGGA,090015.05,0616.11372293,N,07535.41060137,W,1,05,2.87,160.00,M,-21.3213,M,,*69
$GPGGA,090015.10,0616.11372293,N,07535.41060137,W,1,05,2.87,160.00,M,-21.3213,M,,*6D
$GPGGA,090015.15,0616.11372293,N,07535.41060137,W,1,05,2.87,160.00,M,-21.3213,M,,*68
$GPGGA,090015.20,0616.11372293,N,07535.41060137,W,1,05,2.87,160.00,M,-21.3213,M,,*6E
$GPGGA,090015.25,0616.11372293,N,07535.41060137,W,1,05,2.87,160.00,M,-21.3213,M,,*6B
$GPGGA,090015.30,0616.11372293,N,07535.41060137,W,1,05,2.87,160.00,M,-21.3213,M,,*6F
$GPGGA,090015.35,0616.11372293,N,07535.41060137,W,1,05,2.87,160.00,M,-21.3213,M,,*6A
$GPGGA,090015.40,0616.11372293,N,07535.41060137,W,1,05,2.87,160.00,M,-21.3213,M,,*68
$GPGGA,090015.45,0616.11372293,N,07535.41060137,W,1,05,2.87,160.00,M,-21.3213,M,,*6D
$GPGGA,090015.50,0616.11372293,N,07535.41060137,W,1,05,2.87,160.00,M,-21.3213,M,,*69
$GPGGA,090015.55,0616.11372293,N,07535.41060137,W,1,05,2.87,160.00,M,-21.3213,M,,*6C
$GPGGA,090015.60,0616.11372293,N,07535.41060137,W,1,05,2.87,160.00,M,-21.3213,M,,*6A
$GPGGA,090015.65,0616.11372293,N,07535.41060137,W,1,05,2.87,160.00,M,-21.3213,M,,*6F
$GPGGA,090015.70,0616.11372293,N,07535.41060137,W,1,05,2.87,160.00,M,-21.3213,M,,*6B
$GPGGA,090015.75,0616.11372293,N,07535.41060137,W,1,05,2.87,160.00,M,-21.3213,M,,*6E
$GPGGA,090015.80,0616.11372293,N,07535.41060137,W,1,05,2.87,160.00,M,-21.3213,M,,*64
$GPGGA,090015.85,0616.11372293,N,07535.41060137,W,1,05,2.87,160.00,M,-21.3213,M,,*61
$GPGGA,090015.90,0616.11372293,N,07535.41060137,W,1,05,2.87,160.00,M,-21.3213,M,,*65
$GPGGA,090015.95,0616.11372293,N,07535.41060137,W,1,05,2.87,160.00,M,-21.3213,M,,*60
$GPGGA,090016.00,0616.11372293,N,07535.41060137,W,1,05,2.87,160.00,M,-21.3213,M,,*6F
$GPGGA,090016.05,0616.11372293,N,07535.41060137,W,1,05,2.87,160.00,M,-21.3213,M,,*6A
$GPGGA,090016.10,0616.11372293,N,07535.41060137,W,1,05,2.87,160.00,M,-21.3213,M,,*6E
$GPGGA,090016.15,0616.11372293,N,07535.41060137,W,1,05,2.87,160.00,M,-21.3213,M,,*6B
$GPGGA,090016.20,0616.11372293,N,07535.41060137,W,1,05,2.87,160.00,M,-21.3213,M,,*6D
$GPGGA,090016.25,0616.11372293,N,07535.41060137,W,1,05,2.87,160.00,M,-21.3213,M,,*68
$GPGGA,090016.30,0616.11372293,N,07535.41060137,W,1,05,2.87,160.00,M,-21.3213,M,,*6C
$GPGGA,090016.35,0616.11372293,N,07535.41060137,W,1,05,2.87,160.00,M,-21.3213,M,,*69
$GPGGA,090016.40,0616.11372293,N,07535.41060137,W,1,05,2.87,160.00,M,-21.3213,M,,*6B
$GPGGA,090016.45,0616.11372293,N,07535.41060137,W,1,05,2.87,160.00,M,-21.3213,M,,*6E
$GPGGA,090016.50,0616.11372293,N,07535.41060137,W,1,05,2.87,160.00,M,-21.3213,M,,*6A
$GPGGA,090016.55,0616.11372293,N,07535.41060137,W,1,05,2.87,160.00,M,-21.3213,M,,*6F
$GPGGA,090016.60,0616.11372293,N,07535.41060137,W,1,05,2.87,160.00,M,-21.3213,M,,*69
$GPGGA,090016.65,0616.11372293,N,07535.41060137,W,1,05,2.87,160.00,M,-21.3213,M,,*6C
$GPGGA,090016.70,0616.11372293,N,07535.41060137,W,1,05,2.87,160.00,M,-21.3213,M,,*68
$GPGGA,090016.75,0616.11372293,N,07535.41060137,W,1,05,2.87,160.00,M,-21.3213,M,,*6D
$GPGGA,090016.80,0616.11372293,N,07535.41060137,W,1,05,2.87,160.00,M,-21.3213,M,,*67
$GPGGA,090016.85,0616.11372293,N,07535.41060137,W,1,05,2.87,160.00,M,-21.3213,M,,*62
$GPGGA,090016.90,0616.11372293,N,07535.41060137,W,1,05,2.87,160.00,M,-21.3213,M,,*66
$GPGGA,090016.95,0616.11372293,N,07535.41060137,W,1,05,2.87,160.00,M,-21.3213,M,,*63
$GPGGA,090017.00,0616.11372293,N,07535.41060137,W,1,05,2.87,160.00,M,-21.3213,M,,*6E
$GPGGA,090017.05,0616.11372293,N,07535.41060137,W,1,05,2.87,160.00,M,-21.3213,M,,*6B
$GPGGA,090017.10,0616.11372293,N,07535.41060137,W,1,05,2.87,160.00,M,-21.3213,M,,*6F
$GPGGA,090017.15,0616.11372293,N,07535.41060137,W,1,05,2.87,160.00,M,-21.3213,M,,*6A
$GPGGA,090017.20,0616.11372293,N,07535.41060137,W,1,05,2.87,160.00,M,-21.3213,M,,*6C
$GPGGA,090017.25,0616.11372293,N,07535.41060137,W,1,05,2.87,160.00,M,-21.3213,M,,*69
$GPGGA,090017.30,0616.11372293,N,07535.41060137,W,1,05,2.87,160.00,M,-21.3213,M,,*6D
$GPGGA,090017.35,0616.11372293,N,07535.41060137,W,1,05,2.87,160.00,M,-21.3213,M,,*68
$GPGGA,090017.40,0616.11372293,N,07535.41060137,W,1,05,2.87,160.00,M,-21.3213,M,,*6A
$GPGGA,090017.45,0616.11372293,N,07535.41060137,W,1,05,2.87,160.00,M,-21.3213,M,,*6F
$GPGGA,090017.50,0616.11372293,N,07535.41060137,W,1,05,2.87,160.00,M,-21.3213,M,,*6B
$GPGGA,090017.55,0616.11372293,N,07535.41060137,W,1,05,2.87,160.00,M,-21.3213,M,,*6E
$GPGGA,090017.60,0616.11372293,N,07535.41060137,W,1,05,2.87,160.00,M,-21.3213,M,,*68
$GPGGA,090017.65,0616.11372293,N,07535.41060137,W,1,05,2.87,160.00,M,-21.3213,M,,*6D
$GPGGA,090017.70,0616.11372293,N,07535.41060137,W,1,05,2.87,160.00,M,-21.3213,M,,*69
$GPGGA,090017.75,0616.11372293,N,07535.41060137,W,1,05,2.87,160.00,M,-21.3213,M,,*6C
$GPGGA,090017.80,0616.11372293,N,07535.41060137,W,1,05,2.87,160.00,M,-21.3213,M,,*66
$GPGGA,090017.85,0616.11372293,N,07535.41060137,W,1,05,2.87,160.00,M,-21.3213,M,,*63
$GPGGA,090017.90,0616.11372293,N,07535.41060137,W,1,05,2.87,160.00,M,-21.3213,M,,*67
$GPGGA,090017.95,0616.11372293,N,07535.41060137,W,1,05,2.87,160.00,M,-21.3213,M,,*62
$GPGGA,090018.00,0616.11372293,N,07535.41060137,W,1,05,2.87,160.00,M,-21.3213,M,,*61
$GPGGA,090018.05,0616.11372293,N,07535.41060137,W,1,05,2.87,160.00,M,-21.3213,M,,*64
$GPGGA,090018.10,0616.11372293,N,07535.41060137,W,1,05,2.87,160.00,M,-21.3213,M,,*60
$GPGGA,090018.15,0616.11372293,N,07535.41060137,W,1,05,2.87,160.00,M,-21.3213,M,,*65
$GPGGA,090018.20,0616.11372293,N,07535.41060137,W,1,05,2.87,160.00,M,-21.3213,M,,*63
$GPGGA,090018.25,0616.11372293,N,07535.41060137,W,1,05,2.87,160.00,M,-21.3213,M,,*66
$GPGGA,090018.30,0616.11372293,N,07535.41060137,W,1,05,2.87,160.00,M,-21.3213,M,,*62
$GPGGA,090018.35,0616.11372293,N,07535.41060137,W,1,05,2.87,160.00,M,-21.3213,M,,*67
$GPGGA,090018.40,0616.11372293,N,07535.41060137,W,1,05,2.87,160.00,M,-21.3213,M,,*65
$GPGGA,090018.45,0616.11372293,N,07535.41060137,W,1,05,2.87,160.00,M,-21.3213,M,,*60
$GPGGA,090018.50,0616.11372293,N,07535.41060137,W,1,05,2.87,160.00,M,-21.3213,M,,*64
$GPGGA,090018.55,0616.11372293,N,07535.41060137,W,1,05,2.87,160.00,M,-21.3213,M,,*61
$GPGGA,090018.60,0616.11372293,N,07535.41060137,W,1,05,2.87,160.00,M,-21.3213,M,,*67
$GPGGA,090018.65,0616.11372293,N,07535.41060137,W,1,05,2.87,160.00,M,-21.3213,M,,*62
$GPGGA,090018.70,0616.11372293,N,07535.41060137,W,1,05,2.87,160.00,M,-21.3213,M,,*66
$GPGGA,090018.75,0616.11372293,N,07535.41060137,W,1,05,2.87,160.00,M,-21.3213,M,,*63
$GPGGA,090018.80,0616.11372293,N,07535.41060137,W,1,05,2.87,160.00,M,-21.3213,M,,*69
$GPGGA,090018.85,0616.11372293,N,07535.41060137,W,1,05,2.87,160.00,M,-21.3213,M,,*6C
$GPGGA,090018.90,0616.11372293,N,07535.41060137,W,1,05,2.87,160.00,M,-21.3213,M,,*68
$GPGGA,090018.95,0616.11372293,N,07535.41060137,W,1,05,2.87,160.00,M,-21.3213,M,,*6D
$GPGGA,090019.00,0616.11372293,N,07535.41060137,W,1,05,2.87,160.00,M,-21.3213,M,,*60
$GPGGA,090019.05,0616.11372293,N,07535.41060137,W,1,05,2.87,160.00,M,-21.3213,M,,*65
$GPGGA,090019.10,0616.11372293,N,07535.41060137,W,1,05,2.87,160.00,M,-21.3213,M,,*61
$GPGGA,090019.15,0616.11372293,N,07535.41060137,W,1,05,2.87,160.00,M,-21.3213,M,,*64
$GPGGA,090019.20,0616.11372293,N,07535.41060137,W,1,05,2.87,160.00,M,-21.3213,M,,*62
$GPGGA,090019.25,0616.11372293,N,07535.41060137,W,1,05,2.87,160.00,M,-21.3213,M,,*67
$GPGGA,090019.30,0616.11372293,N,07535.41060137,W,1,05,2.87,160.00,M,-21.3213,M,,*63
$GPGGA,090019.35,0616.11372293,N,07535.41060137,W,1,05,2.87,160.00,M,-21.3213,M,,*66
$GPGGA,090019.40,0616.11372293,N,07535.41060137,W,1,05,2.87,160.00,M,-21.3213,M,,*64
$GPGGA,090019.45,0616.11372293,N,07535.41060137,W,1,05,2.87,160.00,M,-21.3213,M,,*61
$GPGGA,090019.50,0616.11372293,N,07535.41060137,W,1,05,2.87,160.00,M,-21.3213,M,,*65
$GPGGA,090019.55,0616.11372293,N,07535.41060137,W,1,05,2.87,160.00,M,-21.3213,M,,*60
$GPGGA,090019.60,0616.11372293,N,07535.41060137,W,1,05,2.87,160.00,M,-21.3213,M,,*66
$GPGGA,090019.65,0616.11372293,N,07535.41060137,W,1,05,2.87,160.00,M,-21.3213,M,,*63
$GPGGA,090019.70,0616.11372293,N,07535.41060137,W,1,05,2.87,160.00,M,-21.3213,M,,*67
$GPGGA,090019.75,0616.11372293,N,07535.41060137,W,1,05,2.87,160.00,M,-21.3213,M,,*62
$GPGGA,090019.80,0616.11372293,N,07535.41060137,W,1,05,2.87,160.00,M,-21.3213,M,,*68
$GPGGA,090019.85,0616.11372293,N,07535.41060137,W,1,05,2.87,160.00,M,-21.3213,M,,*6D
$GPGGA,090019.90,0616.11372293,N,07535.41060137,W,1,05,2.87,160.00,M,-21.3213,M,,*69
$GPGGA,090019.95,0616.11372293,N,07535.41060137,W,1,05,2.87,160.00,M,-21.3213,M,,*6C
$GPGGA,090020.00,0616.11372293,N,07535.41060137,W,1,05,2.87,160.00,M,-21.3213,M,,*6A
$GPGGA,090020.05,0616.11372293,N,07535.41060137,W,1,05,2.87,160.00,M,-21.3213,M,,*6F
$GPGGA,090020.10,0616.11372293,N,07535.41060137,W,1,05,2.87,160.00,M,-21.3213,M,,*6B
$GPGGA,090020.15,0616.11372293,N,07535.41060137,W,1,05,2.87,160.00,M,-21.3213,M,,*6E
$GPGGA,090020.20,0616.11372293,N,07535.41060137,W,1,05,2.87,160.00,M,-21.3213,M,,*68
$GPGGA,090020.25,0616.11372293,N,07535.41060137,W,1,05,2.87,160.00,M,-21.3213,M,,*6D
$GPGGA,090020.30,0616.11372293,N,07535.41060137,W,1,05,2.87,160.00,M,-21.3213,M,,*69
$GPGGA,090020.35,0616.11372293,N,07535.41060137,W,1,05,2.87,160.00,M,-21.3213,M,,*6C
$GPGGA,090020.40,0616.11372293,N,07535.41060137,W,1,05,2.87,160.00,M,-21.3213,M,,*6E
$GPGGA,090020.45,0616.11372293,N,07535.41060137,W,1,05,2.87,160.00,M,-21.3213,M,,*6B
$GPGGA,090020.50,0616.11372293,N,07535.41060137,W,1,05,2.87,160.00,M,-21.3213,M,,*6F
$GPGGA,090020.55,0616.11372293,N,07535.41060137,W,1,05,2.87,160.00,M,-21.3213,M,,*6A
$GPGGA,090020.60,0616.11372293,N,07535.41060137,W,1,05,2.87,160.00,M,-21.3213,M,,*6C
$GPGGA,090020.65,0616.11372293,N,07535.41060137,W,1,05,2.87,160.00,M,-21.3213,M,,*69
$GPGGA,090020.70,0616.11372293,N,07535.41060137,W,1,05,2.87,160.00,M,-21.3213,M,,*6D
$GPGGA,090020.75,0616.11372293,N,07535.41060137,W,1,05,2.87,160.00,M,-21.3213,M,,*68
$GPGGA,090020.80,0616.11372293,N,07535.41060137,W,1,05,2.87,160.00,M,-21.3213,M,,*62
$GPGGA,090020.85,0616.11372293,N,07535.41060137,W,1,05,2.87,160.00,M,-21.3213,M,,*67
$GPGGA,090020.90,0616.11372293,N,07535.41060137,W,1,05,2.87,160.00,M,-21.3213,M,,*63
$GPGGA,090020.95,0616.11372293,N,07535.41060137,W,1,05,2.87,160.00,M,-21.3213,M,,*66
$GPGGA,090021.00,0616.11372293,N,07535.41060137,W,1,05,2.87,160.00,M,-21.3213,M,,*6B
$GPGGA,090021.05,0616.11372293,N,07535.41060137,W,1,05,2.87,160.00,M,-21.3213,M,,*6E
$GPGGA,090021.10,0616.11372293,N,07535.41060137,W,1,05,2.87,160.00,M,-21.3213,M,,*6A
$GPGGA,090021.15,0616.11372293,N,07535.41060137,W,1,05,2.87,160.00,M,-21.3213,M,,*6F
$GPGGA,090021.20,0616.11372293,N,07535.41060137,W,1,05,2.87,160.00,M,-21.3213,M,,*69
$GPGGA,090021.25,0616.11372293,N,07535.41060137,W,1,05,2.87,160.00,M,-21.3213,M,,*6C
$GPGGA,090021.30,0616.11372293,N,07535.41060137,W,1,05,2.87,160.00,M,-21.3213,M,,*68
$GPGGA,090021.35,0616.11372293,N,07535.41060137,W,1,05,2.87,160.00,M,-21.3213,M,,*6D
$GPGGA,090021.40,0616.11372293,N,07535.41060137,W,1,05,2.87,160.00,M,-21.3213,M,,*6F
$GPGGA,090021.45,0616.11372293,N,07535.41060137,W,1,05,2.87,160.00,M,-21.3213,M,,*6A
$GPGGA,090021.50,0616.11372293,N,07535.41060137,W,1,05,2.87,160.00,M,-21.3213,M,,*6E
$GPGGA,090021.55,0616.11372293,N,07535.41060137,W,1,05,2.87,160.00,M,-21.3213,M,,*6B
$GPGGA,090021.60,0616.11372293,N,07535.41060137,W,1,05,2.87,160.00,M,-21.3213,M,,*6D
$GPGGA,090021.65,0616.11372293,N,07535.41060137,W,1,05,2.87,160.00,M,-21.3213,M,,*68
$GPGGA,090021.70,0616.11372293,N,07535.41060137,W,1,05,2.87,160.00,M,-21.3213,M,,*6C
$GPGGA,090021.75,0616.11372293,N,07535.41060137,W,1,05,2.87,160.00,M,-21.3213,M,,*69
$GPGGA,090021.80,0616.11372293,N,07535.41060137,W,1,05,2.87,160.00,M,-21.3213,M,,*63
$GPGGA,090021.85,0616.11372293,N,07535.41060137,W,1,05,2.87,160.00,M,-21.3213,M,,*66
$GPGGA,090021.90,0616.11372293,N,07535.41060137,W,1,05,2.87,160.00,M,-21.3213,M,,*62
$GPGGA,090021.95,0616.11372293,N,07535.41060137,W,1,05,2.87,160.00,M,-21.3213,M,,*67
$GPGGA,090022.00,0616.11372293,N,07535.41060137,W,1,05,2.87,160.00,M,-21.3213,M,,*68
$GPGGA,090022.05,0616.11372293,N,07535.41060137,W,1,05,2.87,160.00,M,-21.3213,M,,*6D
$GPGGA,090022.10,0616.11372293,N,07535.41060137,W,1,05,2.87,160.00,M,-21.3213,M,,*69
$GPGGA,090022.15,0616.11372293,N,07535.41060137,W,1,05,2.87,160.00,M,-21.3213,M,,*6C
$GPGGA,090022.20,0616.11372293,N,07535.41060137,W,1,05,2.87,160.00,M,-21.3213,M,,*6A
$GPGGA,090022.25,0616.11372293,N,07535.41060137,W,1,05,2.87,160.00,M,-21.3213,M,,*6F
$GPGGA,090022.30,0616.11372293,N,07535.41060137,W,1,05,2.87,160.00,M,-21.3213,M,,*6B
$GPGGA,090022.35,0616.11372293,N,07535.41060137,W,1,05,2.87,160.00,M,-21.3213,M,,*6E
$GPGGA,090022.40,0616.11372293,N,07535.41060137,W,1,05,2.87,160.00,M,-21.3213,M,,*6C
$GPGGA,090022.45,0616.11372293,N,07535.41060137,W,1,05,2.87,160.00,M,-21.3213,M,,*69
$GPGGA,090022.50,0616.11372293,N,07535.41060137,W,1,05,2.87,160.00,M,-21.3213,M,,*6D
$GPGGA,090022.55,0616.11372293,N,07535.41060137,W,1,05,2.87,160.00,M,-21.3213,M,,*68
$GPGGA,090022.60,0616.11372293,N,07535.41060137,W,1,05,2.87,160.00,M,-21.3213,M,,*6E
$GPGGA,090022.65,0616.11372293,N,07535.41060137,W,1,05,2.87,160.00,M,-21.3213,M,,*6B
$GPGGA,090022.70,0616.11372293,N,07535.41060137,W,1,05,2.87,160.00,M,-21.3213,M,,*6F
$GPGGA,090022.75,0616.11372293,N,07535.41060137,W,1,05,2.87,160.00,M,-21.3213,M,,*6A
$GPGGA,090022.80,0616.11372293,N,07535.41060137,W,1,05,2.87,160.00,M,-21.3213,M,,*60
$GPGGA,090022.85,0616.11372293,N,07535.41060137,W,1,05,2.87,160.00,M,-21.3213,M,,*65
$GPGGA,090022.90,0616.11372293,N,07535.41060137,W,1,05,2.87,160.00,M,-21.3213,M,,*61
$GPGGA,090022.95,0616.11372293,N,07535.41060137,W,1,05,2.87,160.00,M,-21.3213,M,,*64
$GPGGA,090023.00,0616.11372293,N,07535.41060137,W,1,05,2.87,160.00,M,-21.3213,M,,*69
$GPGGA,090023.05,0616.11372293,N,07535.41060137,W,1,05,2.87,160.00,M,-21.3213,M,,*6C
$GPGGA,090023.10,0616.11372293,N,07535.41060137,W,1,05,2.87,160.00,M,-21.3213,M,,*68
$GPGGA,090023.15,0616.11372293,N,07535.41060137,W,1,05,2.87,160.00,M,-21.3213,M,,*6D
$GPGGA,090023.20,0616.11372293,N,07535.41060137,W,1,05,2.87,160.00,M,-21.3213,M,,*6B
$GPGGA,090023.25,0616.11372293,N,07535.41060137,W,1,05,2.87,160.00,M,-21.3213,M,,*6E
$GPGGA,090023.30,0616.11372293,N,07535.41060137,W,1,05,2.87,160.00,M,-21.3213,M,,*6A
$GPGGA,090023.35,0616.11372293,N,07535.41060137,W,1,05,2.87,160.00,M,-21.3213,M,,*6F
$GPGGA,090023.40,0616.11372293,N,07535.41060137,W,1,05,2.87,160.00,M,-21.3213,M,,*6D
$GPGGA,090023.45,0616.11372293,N,07535.41060137,W,1,05,2.87,160.00,M,-21.3213,M,,*68
$GPGGA,090023.50,0616.11372293,N,07535.41060137,W,1,05,2.87,160.00,M,-21.3213,M,,*6C
$GPGGA,090023.55,0616.11372293,N,07535.41060137,W,1,05,2.87,160.00,M,-21.3213,M,,*69
$GPGGA,090023.60,0616.11372293,N,07535.41060137,W,1,05,2.87,160.00,M,-21.3213,M,,*6F
$GPGGA,090023.65,0616.11372293,N,07535.41060137,W,1,05,2.87,160.00,M,-21.3213,M,,*6A
$GPGGA,090023.70,0616.11372293,N,07535.41060137,W,1,05,2.87,160.00,M,-21.3213,M,,*6E
$GPGGA,090023.75,0616.11372293,N,07535.41060137,W,1,05,2.87,160.00,M,-21.3213,M,,*6B
$GPGGA,090023.80,0616.11372293,N,07535.41060137,W,1,05,2.87,160.00,M,-21.3213,M,,*61
$GPGGA,090023.85,0616.11372293,N,07535.41060137,W,1,05,2.87,160.00,M,-21.3213,M,,*64
$GPGGA,090023.90,0616.11372293,N,07535.41060137,W,1,05,2.87,160.00,M,-21.3213,M,,*60
$GPGGA,090023.95,0616.11372293,N,07535.41060137,W,1,05,2.87,160.00,M,-21.3213,M,,*65
$GPGGA,090024.00,0616.11372293,N,07535.41060137,W,1,05,2.87,160.00,M,-21.3213,M,,*6E
$GPGGA,090024.05,0616.11372293,N,07535.41060137,W,1,05,2.87,160.00,M,-21.3213,M,,*6B
$GPGGA,090024.10,0616.11372293,N,07535.41060137,W,1,05,2.87,160.00,M,-21.3213,M,,*6F
$GPGGA,090024.15,0616.11372293,N,07535.41060137,W,1,05,2.87,160.00,M,-21.3213,M,,*6A
$GPGGA,090024.20,0616.11372293,N,07535.41060137,W,1,05,2.87,160.00,M,-21.3213,M,,*6C
$GPGGA,090024.25,0616.11372293,N,07535.41060137,W,1,05,2.87,160.00,M,-21.3213,M,,*69
$GPGGA,090024.30,0616.11372293,N,07535.41060137,W,1,05,2.87,160.00,M,-21.3213,M,,*6D
$GPGGA,090024.35,0616.11372293,N,07535.41060137,W,1,05,2.87,160.00,M,-21.3213,M,,*68
$GPGGA,090024.40,0616.11372293,N,07535.41060137,W,1,05,2.87,160.00,M,-21.3213,M,,*6A
$GPGGA,090024.45,0616.11372293,N,07535.41060137,W,1,05,2.87,160.00,M,-21.3213,M,,*6F
$GPGGA,090024.50,0616.11372293,N,07535.41060137,W,1,05,2.87,160.00,M,-21.3213,M,,*6B
$GPGGA,090024.55,0616.11372293,N,07535.41060137,W,1,05,2.87,160.00,M,-21.3213,M,,*6E
$GPGGA,090024.60,0616.11372293,N,07535.41060137,W,1,05,2.87,160.00,M,-21.3213,M,,*68
$GPGGA,090024.65,0616.11372293,N,07535.41060137,W,1,05,2.87,160.00,M,-21.3213,M,,*6D
$GPGGA,090024.70,0616.11372293,N,07535.41060137,W,1,05,2.87,160.00,M,-21.3213,M,,*69
$GPGGA,090024.75,0616.11372293,N,07535.41060137,W,1,05,2.87,160.00,M,-21.3213,M,,*6C
$GPGGA,090024.80,0616.11372293,N,07535.41060137,W,1,05,2.87,160.00,M,-21.3213,M,,*66
$GPGGA,090024.85,0616.11372293,N,07535.41060137,W,1,05,2.87,160.00,M,-21.3213,M,,*63
$GPGGA,090024.90,0616.11372293,N,07535.41060137,W,1,05,2.87,160.00,M,-21.3213,M,,*67
$GPGGA,090024.95,0616.11372293,N,07535.41060137,W,1,05,2.87,160.00,M,-21.3213,M,,*62
$GPGGA,090025.00,0616.11372293,N,07535.41060137,W,1,05,2.87,160.00,M,-21.3213,M,,*6F
$GPGGA,090025.05,0616.11372293,N,07535.41060137,W,1,05,2.87,160.00,M,-21.3213,M,,*6A
$GPGGA,090025.10,0616.11372293,N,07535.41060137,W,1,05,2.87,160.00,M,-21.3213,M,,*6E
$GPGGA,090025.15,0616.11372293,N,07535.41060137,W,1,05,2.87,160.00,M,-21.3213,M,,*6B
$GPGGA,090025.20,0616.11372293,N,07535.41060137,W,1,05,2.87,160.00,M,-21.3213,M,,*6D
$GPGGA,090025.25,0616.11372293,N,07535.41060137,W,1,05,2.87,160.00,M,-21.3213,M,,*68
$GPGGA,090025.30,0616.11372293,N,07535.41060137,W,1,05,2.87,160.00,M,-21.3213,M,,*6C
$GPGGA,090025.35,0616.11372293,N,07535.41060137,W,1,05,2.87,160.00,M,-21.3213,M,,*69
$GPGGA,090025.40,0616.11372293,N,07535.41060137,W,1,05,2.87,160.00,M,-21.3213,M,,*6B
$GPGGA,090025.45,0616.11372293,N,07535.41060137,W,1,05,2.87,160.00,M,-21.3213,M,,*6E
$GPGGA,090025.50,0616.11372293,N,07535.41060137,W,1,05,2.87,160.00,M,-21.3213,M,,*6A
$GPGGA,090025.55,0616.11372293,N,07535.41060137,W,1,05,2.87,160.00,M,-21.3213,M,,*6F
$GPGGA,090025.60,0616.11372293,N,07535.41060137,W,1,05,2.87,160.00,M,-21.3213,M,,*69
$GPGGA,090025.65,0616.11372293,N,07535.41060137,W,1,05,2.87,160.00,M,-21.3213,M,,*6C
$GPGGA,090025.70,0616.11372293,N,07535.41060137,W,1,05,2.87,160.00,M,-21.3213,M,,*68
$GPGGA,090025.75,0616.11372293,N,07535.41060137,W,1,05,2.87,160.00,M,-21.3213,M,,*6D
$GPGGA,090025.80,0616.11372293,N,07535.41060137,W,1,05,2.87,160.00,M,-21.3213,M,,*67
$GPGGA,090025.85,0616.11372293,N,07535.41060137,W,1,05,2.87,160.00,M,-21.3213,M,,*62
$GPGGA,090025.90,0616.11372293,N,07535.41060137,W,1,05,2.87,160.00,M,-21.3213,M,,*66
$GPGGA,090025.95,0616.11372293,N,07535.41060137,W,1,05,2.87,160.00,M,-21.3213,M,,*63
$GPGGA,090026.00,0616.11372293,N,07535.41060137,W,1,05,2.87,160.00,M,-21.3213,M,,*6C
$GPGGA,090026.05,0616.11372293,N,07535.41060137,W,1,05,2.87,160.00,M,-21.3213,M,,*69
$GPGGA,090026.10,0616.11372293,N,07535.41060137,W,1,05,2.87,160.00,M,-21.3213,M,,*6D
$GPGGA,090026.15,0616.11372293,N,07535.41060137,W,1,05,2.87,160.00,M,-21.3213,M,,*68
$GPGGA,090026.20,0616.11372293,N,07535.41060137,W,1,05,2.87,160.00,M,-21.3213,M,,*6E
$GPGGA,090026.25,0616.11372293,N,07535.41060137,W,1,05,2.87,160.00,M,-21.3213,M,,*6B
$GPGGA,090026.30,0616.11372293,N,07535.41060137,W,1,05,2.87,160.00,M,-21.3213,M,,*6F
$GPGGA,090026.35,0616.11372293,N,07535.41060137,W,1,05,2.87,160.00,M,-21.3213,M,,*6A
$GPGGA,090026.40,0616.11372293,N,07535.41060137,W,1,05,2.87,160.00,M,-21.3213,M,,*68
$GPGGA,090026.45,0616.11372293,N,07535.41060137,W,1,05,2.87,160.00,M,-21.3213,M,,*6D
$GPGGA,090026.50,0616.11372293,N,07535.41060137,W,1,05,2.87,160.00,M,-21.3213,M,,*69
$GPGGA,090026.55,0616.11372293,N,07535.41060137,W,1,05,2.87,160.00,M,-21.3213,M,,*6C
$GPGGA,090026.60,0616.11372293,N,07535.41060137,W,1,05,2.87,160.00,M,-21.3213,M,,*6A
$GPGGA,090026.65,0616.11372293,N,07535.41060137,W,1,05,2.87,160.00,M,-21.3213,M,,*6F
$GPGGA,090026.70,0616.11372293,N,07535.41060137,W,1,05,2.87,160.00,M,-21.3213,M,,*6B
$GPGGA,090026.75,0616.11372293,N,07535.41060137,W,1,05,2.87,160.00,M,-21.3213,M,,*6E
$GPGGA,090026.80,0616.11372293,N,07535.41060137,W,1,05,2.87,160.00,M,-21.3213,M,,*64
$GPGGA,090026.85,0616.11372293,N,07535.41060137,W,1,05,2.87,160.00,M,-21.3213,M,,*61
$GPGGA,090026.90,0616.11372293,N,07535.41060137,W,1,05,2.87,160.00,M,-21.3213,M,,*65
$GPGGA,090026.95,0616.11372293,N,07535.41060137,W,1,05,2.87,160.00,M,-21.3213,M,,*60
$GPGGA,090027.00,0616.11372293,N,07535.41060137,W,1,05,2.87,160.00,M,-21.3213,M,,*6D
$GPGGA,090027.05,0616.11372293,N,07535.41060137,W,1,05,2.87,160.00,M,-21.3213,M,,*68
$GPGGA,090027.10,0616.11372293,N,07535.41060137,W,1,05,2.87,160.00,M,-21.3213,M,,*6C
$GPGGA,090027.15,0616.11372293,N,07535.41060137,W,1,05,2.87,160.00,M,-21.3213,M,,*69
$GPGGA,090027.20,0616.11372293,N,07535.41060137,W,1,05,2.87,160.00,M,-21.3213,M,,*6F
$GPGGA,090027.25,0616.11372293,N,07535.41060137,W,1,05,2.87,160.00,M,-21.3213,M,,*6A
$GPGGA,090027.30,0616.11372293,N,07535.41060137,W,1,05,2.87,160.00,M,-21.3213,M,,*6E
$GPGGA,090027.35,0616.11372293,N,07535.41060137,W,1,05,2.87,160.00,M,-21.3213,M,,*6B
$GPGGA,090027.40,0616.11372293,N,07535.41060137,W,1,05,2.87,160.00,M,-21.3213,M,,*69
$GPGGA,090027.45,0616.11372293,N,07535.41060137,W,1,05,2.87,160.00,M,-21.3213,M,,*6C
$GPGGA,090027.50,0616.11372293,N,07535.41060137,W,1,05,2.87,160.00,M,-21.3213,M,,*68
$GPGGA,090027.55,0616.11372293,N,07535.41060137,W,1,05,2.87,160.00,M,-21.3213,M,,*6D
$GPGGA,090027.60,0616.11372293,N,07535.41060137,W,1,05,2.87,160.00,M,-21.3213,M,,*6B
$GPGGA,090027.65,0616.11372293,N,07535.41060137,W,1,05,2.87,160.00,M,-21.3213,M,,*6E
$GPGGA,090027.70,0616.11372293,N,07535.41060137,W,1,05,2.87,160.00,M,-21.3213,M,,*6A
$GPGGA,090027.75,0616.11372293,N,07535.41060137,W,1,05,2.87,160.00,M,-21.3213,M,,*6F
$GPGGA,090027.80,0616.11372293,N,07535.41060137,W,1,05,2.87,160.00,M,-21.3213,M,,*65
$GPGGA,090027.85,0616.11372293,N,07535.41060137,W,1,05,2.87,160.00,M,-21.3213,M,,*60
$GPGGA,090027.90,0616.11372293,N,07535.41060137,W,1,05,2.87,160.00,M,-21.3213,M,,*64
$GPGGA,090027.95,0616.11372293,N,07535.41060137,W,1,05,2.87,160.00,M,-21.3213,M,,*61
$GPGGA,090028.00,0616.11372293,N,07535.41060137,W,1,05,2.87,160.00,M,-21.3213,M,,*62
$GPGGA,090028.05,0616.11372293,N,07535.41060137,W,1,05,2.87,160.00,M,-21.3213,M,,*67
$GPGGA,090028.10,0616.11372293,N,07535.41060137,W,1,05,2.87,160.00,M,-21.3213,M,,*63
$GPGGA,090028.15,0616.11372293,N,07535.41060137,W,1,05,2.87,160.00,M,-21.3213,M,,*66
$GPGGA,090028.20,0616.11372293,N,07535.41060137,W,1,05,2.87,160.00,M,-21.3213,M,,*60
$GPGGA,090028.25,0616.11372293,N,07535.41060137,W,1,05,2.87,160.00,M,-21.3213,M,,*65
$GPGGA,090028.30,0616.11372293,N,07535.41060137,W,1,05,2.87,160.00,M,-21.3213,M,,*61
$GPGGA,090028.35,0616.11372293,N,07535.41060137,W,1,05,2.87,160.00,M,-21.3213,M,,*64
$GPGGA,090028.40,0616.11372293,N,07535.41060137,W,1,05,2.87,160.00,M,-21.3213,M,,*66
$GPGGA,090028.45,0616.11372293,N,07535.41060137,W,1,05,2.87,160.00,M,-21.3213,M,,*63
$GPGGA,090028.50,0616.11372293,N,07535.41060137,W,1,05,2.87,160.00,M,-21.3213,M,,*67
$GPGGA,090028.55,0616.11372293,N,07535.41060137,W,1,05,2.87,160.00,M,-21.3213,M,,*62
$GPGGA,090028.60,0616.11372293,N,07535.41060137,W,1,05,2.87,160.00,M,-21.3213,M,,*64
$GPGGA,090028.65,0616.11372293,N,07535.41060137,W,1,05,2.87,160.00,M,-21.3213,M,,*61
$GPGGA,090028.70,0616.11372293,N,07535.41060137,W,1,05,2.87,160.00,M,-21.3213,M,,*65
$GPGGA,090028.75,0616.11372293,N,07535.41060137,W,1,05,2.87,160.00,M,-21.3213,M,,*60
$GPGGA,090028.80,0616.11372293,N,07535.41060137,W,1,05,2.87,160.00,M,-21.3213,M,,*6A
$GPGGA,090028.85,0616.11372293,N,07535.41060137,W,1,05,2.87,160.00,M,-21.3213,M,,*6F
$GPGGA,090028.90,0616.11372293,N,07535.41060137,W,1,05,2.87,160.00,M,-21.3213,M,,*6B
$GPGGA,090028.95,0616.11372293,N,07535.41060137,W,1,05,2.87,160.00,M,-21.3213,M,,*6E
$GPGGA,090029.00,0616.11372293,N,07535.41060137,W,1,05,2.87,160.00,M,-21.3213,M,,*63
$GPGGA,090029.05,0616.11372293,N,07535.41060137,W,1,05,2.87,160.00,M,-21.3213,M,,*66
$GPGGA,090029.10,0616.11372293,N,07535.41060137,W,1,05,2.87,160.00,M,-21.3213,M,,*62
$GPGGA,090029.15,0616.11372293,N,07535.41060137,W,1,05,2.87,160.00,M,-21.3213,M,,*67
$GPGGA,090029.20,0616.11372293,N,07535.41060137,W,1,05,2.87,160.00,M,-21.3213,M,,*61
$GPGGA,090029.25,0616.11372293,N,07535.41060137,W,1,05,2.87,160.00,M,-21.3213,M,,*64
$GPGGA,090029.30,0616.11372293,N,07535.41060137,W,1,05,2.87,160.00,M,-21.3213,M,,*60
$GPGGA,090029.35,0616.11372293,N,07535.41060137,W,1,05,2.87,160.00,M,-21.3213,M,,*65
$GPGGA,090029.40,0616.11372293,N,07535.41060137,W,1,05,2.87,160.00,M,-21.3213,M,,*67
$GPGGA,090029.45,0616.11372293,N,07535.41060137,W,1,05,2.87,160.00,M,-21.3213,M,,*62
$GPGGA,090029.50,0616.11372293,N,07535.41060137,W,1,05,2.87,160.00,M,-21.3213,M,,*66
$GPGGA,090029.55,0616.11372293,N,07535.41060137,W,1,05,2.87,160.00,M,-21.3213,M,,*63
$GPGGA,090029.60,0616.11372293,N,07535.41060137,W,1,05,2.87,160.00,M,-21.3213,M,,*65
$GPGGA,090029.65,0616.11372293,N,07535.41060137,W,1,05,2.87,160.00,M,-21.3213,M,,*60
$GPGGA,090029.70,0616.11372293,N,07535.41060137,W,1,05,2.87,160.00,M,-21.3213,M,,*64
$GPGGA,090029.75,0616.11372293,N,07535.41060137,W,1,05,2.87,160.00,M,-21.3213,M,,*61
$GPGGA,090029.80,0616.11372293,N,07535.41060137,W,1,05,2.87,160.00,M,-21.3213,M,,*6B
$GPGGA,090029.85,0616.11372293,N,07535.41060137,W,1,05,2.87,160.00,M,-21.3213,M,,*6E
$GPGGA,090029.90,0616.11372293,N,07535.41060137,W,1,05,2.87,160.00,M,-21.3213,M,,*6A
$GPGGA,090029.95,0616.11372293,N,07535.41060137,W,1,05,2.87,160.00,M,-21.3213,M,,*6F
$GPGGA,090030.00,0616.11372293,N,07535.41060137,W,1,05,2.87,160.00,M,-21.3213,M,,*6B
$GPGGA,090030.05,0616.11372293,N,07535.41060137,W,1,05,2.87,160.00,M,-21.3213,M,,*6E
$GPGGA,090030.10,0616.11372293,N,07535.41060137,W,1,05,2.87,160.00,M,-21.3213,M,,*6A
$GPGGA,090030.15,0616.11372293,N,07535.41060137,W,1,05,2.87,160.00,M,-21.3213,M,,*6F
$GPGGA,090030.20,0616.11372293,N,07535.41060137,W,1,05,2.87,160.00,M,-21.3213,M,,*69
$GPGGA,090030.25,0616.11372293,N,07535.41060137,W,1,05,2.87,160.00,M,-21.3213,M,,*6C
$GPGGA,090030.30,0616.11372293,N,07535.41060137,W,1,05,2.87,160.00,M,-21.3213,M,,*68
$GPGGA,090030.35,0616.11372293,N,07535.41060137,W,1,05,2.87,160.00,M,-21.3213,M,,*6D
$GPGGA,090030.40,0616.11372293,N,07535.41060137,W,1,05,2.87,160.00,M,-21.3213,M,,*6F
$GPGGA,090030.45,0616.11372293,N,07535.41060137,W,1,05,2.87,160.00,M,-21.3213,M,,*6A
$GPGGA,090030.50,0616.11372293,N,07535.41060137,W,1,05,2.87,160.00,M,-21.3213,M,,*6E
$GPGGA,090030.55,0616.11372293,N,07535.41060137,W,1,05,2.87,160.00,M,-21.3213,M,,*6B
$GPGGA,090030.60,0616.11372293,N,07535.41060137,W,1,05,2.87,160.00,M,-21.3213,M,,*6D
$GPGGA,090030.65,0616.11372293,N,07535.41060137,W,1,05,2.87,160.00,M,-21.3213,M,,*68
$GPGGA,090030.70,0616.11372293,N,07535.41060137,W,1,05,2.87,160.00,M,-21.3213,M,,*6C
$GPGGA,090030.75,0616.11372293,N,07535.41060137,W,1,05,2.87,160.00,M,-21.3213,M,,*69
$GPGGA,090030.80,0616.11372293,N,07535.41060137,W,1,05,2.87,160.00,M,-21.3213,M,,*63
$GPGGA,090030.85,0616.11372293,N,07535.41060137,W,1,05,2.87,160.00,M,-21.3213,M,,*66
$GPGGA,090030.90,0616.11372293,N,07535.41060137,W,1,05,2.87,160.00,M,-21.3213,M,,*62
$GPGGA,090030.95,0616.11372293,N,07535.41060137,W,1,05,2.87,160.00,M,-21.3213,M,,*67
$GPGGA,090031.00,0616.11372293,N,07535.41060137,W,1,05,2.87,160.00,M,-21.3213,M,,*6A
$GPGGA,090031.05,0616.11372293,N,07535.41060137,W,1,05,2.87,160.00,M,-21.3213,M,,*6F
$GPGGA,090031.10,0616.11372293,N,07535.41060137,W,1,05,2.87,160.00,M,-21.3213,M,,*6B
$GPGGA,090031.15,0616.11372293,N,07535.41060137,W,1,05,2.87,160.00,M,-21.3213,M,,*6E
$GPGGA,090031.20,0616.11372293,N,07535.41060137,W,1,05,2.87,160.00,M,-21.3213,M,,*68
$GPGGA,090031.25,0616.11372293,N,07535.41060137,W,1,05,2.87,160.00,M,-21.3213,M,,*6D
$GPGGA,090031.30,0616.11372293,N,07535.41060137,W,1,05,2.87,160.00,M,-21.3213,M,,*69
$GPGGA,090031.35,0616.11372293,N,07535.41060137,W,1,05,2.87,160.00,M,-21.3213,M,,*6C
$GPGGA,090031.40,0616.11372293,N,07535.41060137,W,1,05,2.87,160.00,M,-21.3213,M,,*6E
$GPGGA,090031.45,0616.11372293,N,07535.41060137,W,1,05,2.87,160.00,M,-21.3213,M,,*6B
$GPGGA,090031.50,0616.11372293,N,07535.41060137,W,1,05,2.87,160.00,M,-21.3213,M,,*6F
$GPGGA,090031.55,0616.11372293,N,07535.41060137,W,1,05,2.87,160.00,M,-21.3213,M,,*6A
$GPGGA,090031.60,0616.11372293,N,07535.41060137,W,1,05,2.87,160.00,M,-21.3213,M,,*6C
$GPGGA,090031.65,0616.11372293,N,07535.41060137,W,1,05,2.87,160.00,M,-21.3213,M,,*69
$GPGGA,090031.70,0616.11372293,N,07535.41060137,W,1,05,2.87,160.00,M,-21.3213,M,,*6D
$GPGGA,090031.75,0616.11372293,N,07535.41060137,W,1,05,2.87,160.00,M,-21.3213,M,,*68
$GPGGA,090031.80,0616.11372293,N,07535.41060137,W,1,05,2.87,160.00,M,-21.3213,M,,*62
$GPGGA,090031.85,0616.11372293,N,07535.41060137,W,1,05,2.87,160.00,M,-21.3213,M,,*67
$GPGGA,090031.90,0616.11372293,N,07535.41060137,W,1,05,2.87,160.00,M,-21.3213,M,,*63
$GPGGA,090031.95,0616.11372293,N,07535.41060137,W,1,05,2.87,160.00,M,-21.3213,M,,*66
$GPGGA,090032.00,0616.11372293,N,07535.41060137,W,1,05,2.87,160.00,M,-21.3213,M,,*69
$GPGGA,090032.05,0616.11372293,N,07535.41060137,W,1,05,2.87,160.00,M,-21.3213,M,,*6C
$GPGGA,090032.10,0616.11372293,N,07535.41060137,W,1,05,2.87,160.00,M,-21.3213,M,,*68
$GPGGA,090032.15,0616.11372293,N,07535.41060137,W,1,05,2.87,160.00,M,-21.3213,M,,*6D
$GPGGA,090032.20,0616.11372293,N,07535.41060137,W,1,05,2.87,160.00,M,-21.3213,M,,*6B
$GPGGA,090032.25,0616.11372293,N,07535.41060137,W,1,05,2.87,160.00,M,-21.3213,M,,*6E
$GPGGA,090032.30,0616.11372293,N,07535.41060137,W,1,05,2.87,160.00,M,-21.3213,M,,*6A
$GPGGA,090032.35,0616.11372293,N,07535.41060137,W,1,05,2.87,160.00,M,-21.3213,M,,*6F
$GPGGA,090032.40,0616.11372293,N,07535.41060137,W,1,05,2.87,160.00,M,-21.3213,M,,*6D
$GPGGA,090032.45,0616.11372293,N,07535.41060137,W,1,05,2.87,160.00,M,-21.3213,M,,*68
$GPGGA,090032.50,0616.11372293,N,07535.41060137,W,1,05,2.87,160.00,M,-21.3213,M,,*6C
$GPGGA,090032.55,0616.11372293,N,07535.41060137,W,1,05,2.87,160.00,M,-21.3213,M,,*69
$GPGGA,090032.60,0616.11372293,N,07535.41060137,W,1,05,2.87,160.00,M,-21.3213,M,,*6F
$GPGGA,090032.65,0616.11372293,N,07535.41060137,W,1,05,2.87,160.00,M,-21.3213,M,,*6A
$GPGGA,090032.70,0616.11372293,N,07535.41060137,W,1,05,2.87,160.00,M,-21.3213,M,,*6E
$GPGGA,090032.75,0616.11372293,N,07535.41060137,W,1,05,2.87,160.00,M,-21.3213,M,,*6B
$GPGGA,090032.80,0616.11372293,N,07535.41060137,W,1,05,2.87,160.00,M,-21.3213,M,,*61
$GPGGA,090032.85,0616.11372293,N,07535.41060137,W,1,05,2.87,160.00,M,-21.3213,M,,*64
$GPGGA,090032.90,0616.11372293,N,07535.41060137,W,1,05,2.87,160.00,M,-21.3213,M,,*60
$GPGGA,090032.95,0616.11372293,N,07535.41060137,W,1,05,2.87,160.00,M,-21.3213,M,,*65
$GPGGA,090033.00,0616.11372293,N,07535.41060137,W,1,05,2.87,160.00,M,-21.3213,M,,*68
$GPGGA,090033.05,0616.11372293,N,07535.41060137,W,1,05,2.87,160.00,M,-21.3213,M,,*6D
$GPGGA,090033.10,0616.11372293,N,07535.41060137,W,1,05,2.87,160.00,M,-21.3213,M,,*69
$GPGGA,090033.15,0616.11372293,N,07535.41060137,W,1,05,2.87,160.00,M,-21.3213,M,,*6C
$GPGGA,090033.20,0616.11372293,N,07535.41060137,W,1,05,2.87,160.00,M,-21.3213,M,,*6A
$GPGGA,090033.25,0616.11372293,N,07535.41060137,W,1,05,2.87,160.00,M,-21.3213,M,,*6F
$GPGGA,090033.30,0616.11372293,N,07535.41060137,W,1,05,2.87,160.00,M,-21.3213,M,,*6B
$GPGGA,090033.35,0616.11372293,N,07535.41060137,W,1,05,2.87,160.00,M,-21.3213,M,,*6E
$GPGGA,090033.40,0616.11372293,N,07535.41060137,W,1,05,2.87,160.00,M,-21.3213,M,,*6C
$GPGGA,090033.45,0616.11372293,N,07535.41060137,W,1,05,2.87,160.00,M,-21.3213,M,,*69
$GPGGA,090033.50,0616.11372293,N,07535.41060137,W,1,05,2.87,160.00,M,-21.3213,M,,*6D
$GPGGA,090033.55,0616.11372293,N,07535.41060137,W,1,05,2.87,160.00,M,-21.3213,M,,*68
$GPGGA,090033.60,0616.11372293,N,07535.41060137,W,1,05,2.87,160.00,M,-21.3213,M,,*6E
$GPGGA,090033.65,0616.11372293,N,07535.41060137,W,1,05,2.87,160.00,M,-21.3213,M,,*6B
$GPGGA,090033.70,0616.11372293,N,07535.41060137,W,1,05,2.87,160.00,M,-21.3213,M,,*6F
$GPGGA,090033.75,0616.11372293,N,07535.41060137,W,1,05,2.87,160.00,M,-21.3213,M,,*6A
$GPGGA,090033.80,0616.11372293,N,07535.41060137,W,1,05,2.87,160.00,M,-21.3213,M,,*60
$GPGGA,090033.85,0616.11372293,N,07535.41060137,W,1,05,2.87,160.00,M,-21.3213,M,,*65
$GPGGA,090033.90,0616.11372293,N,07535.41060137,W,1,05,2.87,160.00,M,-21.3213,M,,*61
$GPGGA,090033.95,0616.11372293,N,07535.41060137,W,1,05,2.87,160.00,M,-21.3213,M,,*64
$GPGGA,090034.00,0616.11372293,N,07535.41060137,W,1,05,2.87,160.00,M,-21.3213,M,,*6F
$GPGGA,090034.05,0616.11372293,N,07535.41060137,W,1,05,2.87,160.00,M,-21.3213,M,,*6A
$GPGGA,090034.10,0616.11372293,N,07535.41060137,W,1,05,2.87,160.00,M,-21.3213,M,,*6E
$GPGGA,090034.15,0616.11372293,N,07535.41060137,W,1,05,2.87,160.00,M,-21.3213,M,,*6B
$GPGGA,090034.20,0616.11372293,N,07535.41060137,W,1,05,2.87,160.00,M,-21.3213,M,,*6D
$GPGGA,090034.25,0616.11372293,N,07535.41060137,W,1,05,2.87,160.00,M,-21.3213,M,,*68
$GPGGA,090034.30,0616.11372293,N,07535.41060137,W,1,05,2.87,160.00,M,-21.3213,M,,*6C
$GPGGA,090034.35,0616.11372293,N,07535.41060137,W,1,05,2.87,160.00,M,-21.3213,M,,*69
$GPGGA,090034.40,0616.11372293,N,07535.41060137,W,1,05,2.87,160.00,M,-21.3213,M,,*6B
$GPGGA,090034.45,0616.11372293,N,07535.41060137,W,1,05,2.87,160.00,M,-21.3213,M,,*6E
$GPGGA,090034.50,0616.11372293,N,07535.41060137,W,1,05,2.87,160.00,M,-21.3213,M,,*6A
$GPGGA,090034.55,0616.11372293,N,07535.41060137,W,1,05,2.87,160.00,M,-21.3213,M,,*6F
$GPGGA,090034.60,0616.11372293,N,07535.41060137,W,1,05,2.87,160.00,M,-21.3213,M,,*69
$GPGGA,090034.65,0616.11372293,N,07535.41060137,W,1,05,2.87,160.00,M,-21.3213,M,,*6C
$GPGGA,090034.70,0616.11372293,N,07535.41060137,W,1,05,2.87,160.00,M,-21.3213,M,,*68
$GPGGA,090034.75,0616.11372293,N,07535.41060137,W,1,05,2.87,160.00,M,-21.3213,M,,*6D
$GPGGA,090034.80,0616.11372293,N,07535.41060137,W,1,05,2.87,160.00,M,-21.3213,M,,*67
$GPGGA,090034.85,0616.11372293,N,07535.41060137,W,1,05,2.87,160.00,M,-21.3213,M,,*62
$GPGGA,090034.90,0616.11372293,N,07535.41060137,W,1,05,2.87,160.00,M,-21.3213,M,,*66
$GPGGA,090034.95,0616.11372293,N,07535.41060137,W,1,05,2.87,160.00,M,-21.3213,M,,*63
$GPGGA,090035.00,0616.11372293,N,07535.41060137,W,1,05,2.87,160.00,M,-21.3213,M,,*6E
$GPGGA,090035.05,0616.11372293,N,07535.41060137,W,1,05,2.87,160.00,M,-21.3213,M,,*6B
$GPGGA,090035.10,0616.11372293,N,07535.41060137,W,1,05,2.87,160.00,M,-21.3213,M,,*6F
$GPGGA,090035.15,0616.11372293,N,07535.41060137,W,1,05,2.87,160.00,M,-21.3213,M,,*6A
$GPGGA,090035.20,0616.11372293,N,07535.41060137,W,1,05,2.87,160.00,M,-21.3213,M,,*6C
